web-scraper-order,web-scraper-start-url,Name,Price,Rating,Latitude,Longitude,Location,Image-src
1678630997-76,https://www.trivago.in/en-IN/srl/hotels-mumbai-india?search=200-64981;dr-20230409-20230410;pa-2;rc-1-2,Sahara Star,"19,470",8.3,19.0957428,72.8538296,Vile Parle,"https://imgcy.trivago.com/c_lfill,d_dummy.jpeg,e_sharpen:60,f_auto,h_225,q_auto,w_225/itemimages/34/40/344096_v2.jpeg"
1678630997-77,https://www.trivago.in/en-IN/srl/hotels-mumbai-india?search=200-64981;dr-20230409-20230410;pa-2;rc-1-2,Hotel Rang Sharda,"3,584",6.7,19.0512905,72.8323145,Bandra West,"https://imgcy.trivago.com/c_lfill,d_dummy.jpeg,e_sharpen:60,f_auto,h_225,q_auto,w_225/itemimages/27/87/2787614_v1.jpeg"
1678630997-78,https://www.trivago.in/en-IN/srl/hotels-mumbai-india?search=200-64981;dr-20230409-20230410;pa-2;rc-1-2,Svenska Design Hotel,"8,536",7.9,19.1362794,72.8279936,Andheri West,"https://imgcy.trivago.com/c_lfill,d_dummy.jpeg,e_sharpen:60,f_auto,h_225,q_auto,w_225/itemimages/17/25/1725387_v1.jpeg"
1678630997-79,https://www.trivago.in/en-IN/srl/hotels-mumbai-india?search=200-64981;dr-20230409-20230410;pa-2;rc-1-2,"Hotel Monarch Guestline in MIDC Rabale, Navi Mumbai","2,623",7.8,19.1409011,73.0025648, Rabale,"https://imgcy.trivago.com/c_lfill,d_dummy.jpeg,e_sharpen:60,f_auto,h_225,q_auto,w_225/itemimages/45/26/4526014_v1.jpeg"
1678630997-81,https://www.trivago.in/en-IN/srl/hotels-mumbai-india?search=200-64981;dr-20230409-20230410;pa-2;rc-1-2,JW Marriott Mumbai Sahar,"17,110",9,19.1025072,72.8782482,Vile Parle,"data:image/gif;base64,R0lGODlhAQABAIAAAAAAAP///yH5BAEAAAAALAAAAAABAAEAAAIBRAA7"
1678630997-82,https://www.trivago.in/en-IN/srl/hotels-mumbai-india?search=200-64981;dr-20230409-20230410;pa-2;rc-1-2,The Westin Mumbai Garden City,"20,060",9,19.1727759,72.8607137,Goregaon,"data:image/gif;base64,R0lGODlhAQABAIAAAAAAAP///yH5BAEAAAAALAAAAAABAAEAAAIBRAA7"
1678630997-83,https://www.trivago.in/en-IN/srl/hotels-mumbai-india?search=200-64981;dr-20230409-20230410;pa-2;rc-1-2,Super Dormitory,"1,455",7.8,19.1013121,72.8915808, Saki Naka,"data:image/gif;base64,R0lGODlhAQABAIAAAAAAAP///yH5BAEAAAAALAAAAAABAAEAAAIBRAA7"
1678630997-84,https://www.trivago.in/en-IN/srl/hotels-mumbai-india?search=200-64981;dr-20230409-20230410;pa-2;rc-1-2,Hotel Sea Princess,"9,440",7.8,19.0939893,72.8282142,Juhu,"data:image/gif;base64,R0lGODlhAQABAIAAAAAAAP///yH5BAEAAAAALAAAAAABAAEAAAIBRAA7"
1678630997-88,https://www.trivago.in/en-IN/srl/hotels-mumbai-india?search=200-64981;dr-20230409-20230410;pa-2;rc-1-2,Treebo Trend Lake Bloom,"2,936",8.9,19.1243059,72.8907848,Powai,"data:image/gif;base64,R0lGODlhAQABAIAAAAAAAP///yH5BAEAAAAALAAAAAABAAEAAAIBRAA7"
1678630997-89,https://www.trivago.in/en-IN/srl/hotels-mumbai-india?search=200-64981;dr-20230409-20230410;pa-2;rc-1-2,Hotel Airport International,"4,371",7,19.0963968,72.854192,Vile Parle,"data:image/gif;base64,R0lGODlhAQABAIAAAAAAAP///yH5BAEAAAAALAAAAAABAAEAAAIBRAA7"
1678630997-92,https://www.trivago.in/en-IN/srl/hotels-mumbai-india?search=200-64981;dr-20230409-20230410;pa-2;rc-1-2,Tunga Regale,"8,597",8,19.1211262,72.8702649,Andheri East,"data:image/gif;base64,R0lGODlhAQABAIAAAAAAAP///yH5BAEAAAAALAAAAAABAAEAAAIBRAA7"
1678630997-93,https://www.trivago.in/en-IN/srl/hotels-mumbai-india?search=200-64981;dr-20230409-20230410;pa-2;rc-1-2,Trident Nariman Point,"17,523",9,18.9277306,72.8211985,Nariman Point,"data:image/gif;base64,R0lGODlhAQABAIAAAAAAAP///yH5BAEAAAAALAAAAAABAAEAAAIBRAA7"
1678630997-94,https://www.trivago.in/en-IN/srl/hotels-mumbai-india?search=200-64981;dr-20230409-20230410;pa-2;rc-1-2,"ITC Grand Central, a Luxury Collection Hotel, Mumbai","14,750",8.8,18.9991103,72.8377571, Parel,"data:image/gif;base64,R0lGODlhAQABAIAAAAAAAP///yH5BAEAAAAALAAAAAABAAEAAAIBRAA7"
1678630997-95,https://www.trivago.in/en-IN/srl/hotels-mumbai-india?search=200-64981;dr-20230409-20230410;pa-2;rc-1-2,Hotel Parle International,"3,433",7.3,19.1012629,72.8447577,Vile Parle,"data:image/gif;base64,R0lGODlhAQABAIAAAAAAAP///yH5BAEAAAAALAAAAAABAAEAAAIBRAA7"
1678630997-96,https://www.trivago.in/en-IN/srl/hotels-mumbai-india?search=200-64981;dr-20230409-20230410;pa-2;rc-1-2,Hotel Novotel Mumbai Juhu Beach,"16,520",7.5,19.1087247,72.8243382,Juhu,"data:image/gif;base64,R0lGODlhAQABAIAAAAAAAP///yH5BAEAAAAALAAAAAABAAEAAAIBRAA7"
1678630997-98,https://www.trivago.in/en-IN/srl/hotels-mumbai-india?search=200-64981;dr-20230409-20230410;pa-2;rc-1-2,Abode Bombay,"6,754",8.4,18.9237719,72.8325949,Colaba,"data:image/gif;base64,R0lGODlhAQABAIAAAAAAAP///yH5BAEAAAAALAAAAAABAAEAAAIBRAA7"
1678630997-99,https://www.trivago.in/en-IN/srl/hotels-mumbai-india?search=200-64981;dr-20230409-20230410;pa-2;rc-1-2,Marine Plaza Mumbai,"14,868",8.3,18.9313217,72.8230725, Churchgate,"data:image/gif;base64,R0lGODlhAQABAIAAAAAAAP///yH5BAEAAAAALAAAAAABAAEAAAIBRAA7"
1678630997-100,https://www.trivago.in/en-IN/srl/hotels-mumbai-india?search=200-64981;dr-20230409-20230410;pa-2;rc-1-2,Ibis Mumbai Vikhroli,"7,055",8.5,19.1203687,72.9255727, Vikhroli West,"data:image/gif;base64,R0lGODlhAQABAIAAAAAAAP///yH5BAEAAAAALAAAAAABAAEAAAIBRAA7"
1678631140-101,https://www.trivago.in/en-IN/srl/hotels-mumbai-india?search=200-64981;dr-20230409-20230410;pa-3;rc-1-2,Yogi Executive,"5,375",7.8,19.071221,73.0093529,Vashi,"https://imgcy.trivago.com/c_lfill,d_dummy.jpeg,e_sharpen:60,f_auto,h_225,q_auto,w_225/itemimages/13/19/1319975_v1.jpeg"
1678631140-103,https://www.trivago.in/en-IN/srl/hotels-mumbai-india?search=200-64981;dr-20230409-20230410;pa-3;rc-1-2,Hotel Kohinoor Continental,"9,026",7.9,19.1122731,72.8679607,Andheri East,"https://imgcy.trivago.com/c_lfill,d_dummy.jpeg,e_sharpen:60,f_auto,h_225,q_auto,w_225/itemimages/68/83/688376_v3.jpeg"
1678631140-104,https://www.trivago.in/en-IN/srl/hotels-mumbai-india?search=200-64981;dr-20230409-20230410;pa-3;rc-1-2,"Taj Mahal Tower, Mumbai","17,697",9.5,18.9225854,72.8331543,Colaba,"https://imgcy.trivago.com/c_lfill,d_dummy.jpeg,e_sharpen:60,f_auto,h_225,q_auto,w_225/itemimages/88/16/8816112.jpeg"
1678631140-105,https://www.trivago.in/en-IN/srl/hotels-mumbai-india?search=200-64981;dr-20230409-20230410;pa-3;rc-1-2,Vits Mumbai Hotel,"7,279",7.1,19.1117678,72.8711683,Andheri East,"data:image/gif;base64,R0lGODlhAQABAIAAAAAAAP///yH5BAEAAAAALAAAAAABAAEAAAIBRAA7"
1678631140-106,https://www.trivago.in/en-IN/srl/hotels-mumbai-india?search=200-64981;dr-20230409-20230410;pa-3;rc-1-2,Hotel Beach Garden,"2,854",7.2,19.0980957,72.8271308,Juhu,"data:image/gif;base64,R0lGODlhAQABAIAAAAAAAP///yH5BAEAAAAALAAAAAABAAEAAAIBRAA7"
1678631140-107,https://www.trivago.in/en-IN/srl/hotels-mumbai-india?search=200-64981;dr-20230409-20230410;pa-3;rc-1-2,OYO 1429 Hotel Landmark Annex,"4,512",7.8,18.938211,72.838683, Fort,"data:image/gif;base64,R0lGODlhAQABAIAAAAAAAP///yH5BAEAAAAALAAAAAABAAEAAAIBRAA7"
1678631140-108,https://www.trivago.in/en-IN/srl/hotels-mumbai-india?search=200-64981;dr-20230409-20230410;pa-3;rc-1-2,Hotel Regal Palace,"3,225",7,18.9550161,72.8168604, Girgaon,"data:image/gif;base64,R0lGODlhAQABAIAAAAAAAP///yH5BAEAAAAALAAAAAABAAEAAAIBRAA7"
1678631140-109,https://www.trivago.in/en-IN/srl/hotels-mumbai-india?search=200-64981;dr-20230409-20230410;pa-3;rc-1-2,Ramada Navi Mumbai,"8,054",8.3,19.1086801,73.0172567,Mahape,"data:image/gif;base64,R0lGODlhAQABAIAAAAAAAP///yH5BAEAAAAALAAAAAABAAEAAAIBRAA7"
1678631140-110,https://www.trivago.in/en-IN/srl/hotels-mumbai-india?search=200-64981;dr-20230409-20230410;pa-3;rc-1-2,Sanjary Palace,"2,822",7.5,19.0721308,72.8758673,Kurla,"data:image/gif;base64,R0lGODlhAQABAIAAAAAAAP///yH5BAEAAAAALAAAAAABAAEAAAIBRAA7"
1678631140-111,https://www.trivago.in/en-IN/srl/hotels-mumbai-india?search=200-64981;dr-20230409-20230410;pa-3;rc-1-2,Courtyard by Marriott Mumbai International Airport,"14,160",8.6,19.1140703,72.8641579,Andheri East,"data:image/gif;base64,R0lGODlhAQABAIAAAAAAAP///yH5BAEAAAAALAAAAAABAAEAAAIBRAA7"
1678631140-113,https://www.trivago.in/en-IN/srl/hotels-mumbai-india?search=200-64981;dr-20230409-20230410;pa-3;rc-1-2,Kohinoor Park Mumbai,"4,163",7.7,19.01674,72.829179, Prabhadevi,"data:image/gif;base64,R0lGODlhAQABAIAAAAAAAP///yH5BAEAAAAALAAAAAABAAEAAAIBRAA7"
1678631140-114,https://www.trivago.in/en-IN/srl/hotels-mumbai-india?search=200-64981;dr-20230409-20230410;pa-3;rc-1-2,Four Seasons Mumbai,"18,880",8.9,18.9942981,72.8203148,Worli,"data:image/gif;base64,R0lGODlhAQABAIAAAAAAAP///yH5BAEAAAAALAAAAAABAAEAAAIBRAA7"
1678631140-115,https://www.trivago.in/en-IN/srl/hotels-mumbai-india?search=200-64981;dr-20230409-20230410;pa-3;rc-1-2,Ramada Plaza Palm Grove,"11,800",7.7,19.0986109,72.8266968,Juhu,"data:image/gif;base64,R0lGODlhAQABAIAAAAAAAP///yH5BAEAAAAALAAAAAABAAEAAAIBRAA7"
1678631140-116,https://www.trivago.in/en-IN/srl/hotels-mumbai-india?search=200-64981;dr-20230409-20230410;pa-3;rc-1-2,Radisson Mumbai Andheri Midc,"14,160",8.5,19.1176369,72.8648203,Andheri East,"data:image/gif;base64,R0lGODlhAQABAIAAAAAAAP///yH5BAEAAAAALAAAAAABAAEAAAIBRAA7"
1678631140-117,https://www.trivago.in/en-IN/srl/hotels-mumbai-india?search=200-64981;dr-20230409-20230410;pa-3;rc-1-2,Hotel Elphinstone,"2,477",7.7,18.9487875,72.8406792, Fort,"data:image/gif;base64,R0lGODlhAQABAIAAAAAAAP///yH5BAEAAAAALAAAAAABAAEAAAIBRAA7"
1678631140-118,https://www.trivago.in/en-IN/srl/hotels-mumbai-india?search=200-64981;dr-20230409-20230410;pa-3;rc-1-2,Hotel Suba International,"7,684",8,19.1062869,72.8603635,Andheri East,"data:image/gif;base64,R0lGODlhAQABAIAAAAAAAP///yH5BAEAAAAALAAAAAABAAEAAAIBRAA7"
1678631140-119,https://www.trivago.in/en-IN/srl/hotels-mumbai-india?search=200-64981;dr-20230409-20230410;pa-3;rc-1-2,Fern Residency Mumbai,"8,387",8.2,19.0526389,72.892182,Chembur,"data:image/gif;base64,R0lGODlhAQABAIAAAAAAAP///yH5BAEAAAAALAAAAAABAAEAAAIBRAA7"
1678631140-120,https://www.trivago.in/en-IN/srl/hotels-mumbai-india?search=200-64981;dr-20230409-20230410;pa-3;rc-1-2,The St. Regis Mumbai,"21,240",9.1,18.994456,72.8252274, Parel,"data:image/gif;base64,R0lGODlhAQABAIAAAAAAAP///yH5BAEAAAAALAAAAAABAAEAAAIBRAA7"
1678631140-121,https://www.trivago.in/en-IN/srl/hotels-mumbai-india?search=200-64981;dr-20230409-20230410;pa-3;rc-1-2,Treebo Trend Blue Moon,"3,515",9.2,19.1147655,72.8887664,Andheri East,"data:image/gif;base64,R0lGODlhAQABAIAAAAAAAP///yH5BAEAAAAALAAAAAABAAEAAAIBRAA7"
1678631140-122,https://www.trivago.in/en-IN/srl/hotels-mumbai-india?search=200-64981;dr-20230409-20230410;pa-3;rc-1-2,Keys Select Nestor,"5,834",7.5,19.1157912,72.8835566,Andheri East,"data:image/gif;base64,R0lGODlhAQABAIAAAAAAAP///yH5BAEAAAAALAAAAAABAAEAAAIBRAA7"
1678631140-124,https://www.trivago.in/en-IN/srl/hotels-mumbai-india?search=200-64981;dr-20230409-20230410;pa-3;rc-1-2,ibis Navi Mumbai,"5,106",7.7,19.067868,73.0197498,Turbhe,"data:image/gif;base64,R0lGODlhAQABAIAAAAAAAP///yH5BAEAAAAALAAAAAABAAEAAAIBRAA7"
1678631140-125,https://www.trivago.in/en-IN/srl/hotels-mumbai-india?search=200-64981;dr-20230409-20230410;pa-3;rc-1-2,Fortune Park Lakecity,"12,390",8.4,19.2098624,72.9727779,Thane,"data:image/gif;base64,R0lGODlhAQABAIAAAAAAAP///yH5BAEAAAAALAAAAAABAAEAAAIBRAA7"
1678631166-126,https://www.trivago.in/en-IN/srl/hotels-mumbai-india?search=200-64981;dr-20230409-20230410;pa-4;rc-1-2,Holiday Inn Mumbai International Airport,"15,930",8.3,19.102916,72.8871936,Andheri East,"https://imgcy.trivago.com/c_lfill,d_dummy.jpeg,e_sharpen:60,f_auto,h_225,q_auto,w_225/itemimages/14/01/1401170_v3.jpeg"
1678631166-127,https://www.trivago.in/en-IN/srl/hotels-mumbai-india?search=200-64981;dr-20230409-20230410;pa-4;rc-1-2,Trident Bandra Kurla,"16,815",8.9,19.0666028,72.8674318,Kurla,"https://imgcy.trivago.com/c_lfill,d_dummy.jpeg,e_sharpen:60,f_auto,h_225,q_auto,w_225/itemimages/13/11/1311238_v2.jpeg"
1678631166-128,https://www.trivago.in/en-IN/srl/hotels-mumbai-india?search=200-64981;dr-20230409-20230410;pa-4;rc-1-2,Sun-n-Sand Mumbai,"14,042",7.8,19.1095418,72.8241529,Juhu,"https://imgcy.trivago.com/c_lfill,d_dummy.jpeg,e_sharpen:60,f_auto,h_225,q_auto,w_225/itemimages/99/52/99525_v2.jpeg"
1678631166-129,https://www.trivago.in/en-IN/srl/hotels-mumbai-india?search=200-64981;dr-20230409-20230410;pa-4;rc-1-2,The Fern Goregaon,"12,902",7.8,19.1621993,72.8570161,Goregaon,"https://imgcy.trivago.com/c_lfill,d_dummy.jpeg,e_sharpen:60,f_auto,h_225,q_auto,w_225/itemimages/61/70/6170500_v2.jpeg"
1678631166-130,https://www.trivago.in/en-IN/srl/hotels-mumbai-india?search=200-64981;dr-20230409-20230410;pa-4;rc-1-2,Fariyas Hotel Mumbai,"14,514",7.8,18.917096,72.8299091,Colaba,"data:image/gif;base64,R0lGODlhAQABAIAAAAAAAP///yH5BAEAAAAALAAAAAABAAEAAAIBRAA7"
1678631166-131,https://www.trivago.in/en-IN/srl/hotels-mumbai-india?search=200-64981;dr-20230409-20230410;pa-4;rc-1-2,Treebo Trend Olive Nest,"3,841",9.1,19.1829204,72.8434901,Malad,"data:image/gif;base64,R0lGODlhAQABAIAAAAAAAP///yH5BAEAAAAALAAAAAABAAEAAAIBRAA7"
1678631166-133,https://www.trivago.in/en-IN/srl/hotels-mumbai-india?search=200-64981;dr-20230409-20230410;pa-4;rc-1-2,Royal Orchid Central Grazia,"7,580",7.9,19.0775024,73.0037353,Juhu,"data:image/gif;base64,R0lGODlhAQABAIAAAAAAAP///yH5BAEAAAAALAAAAAABAAEAAAIBRAA7"
1678631166-135,https://www.trivago.in/en-IN/srl/hotels-mumbai-india?search=200-64981;dr-20230409-20230410;pa-4;rc-1-2,Treebo Trend Olive Inn,"4,585",9,19.0727836,72.8759036,Kurla,"data:image/gif;base64,R0lGODlhAQABAIAAAAAAAP///yH5BAEAAAAALAAAAAABAAEAAAIBRAA7"
1678631166-136,https://www.trivago.in/en-IN/srl/hotels-mumbai-india?search=200-64981;dr-20230409-20230410;pa-4;rc-1-2,The Fountain Inn - Fort,"2,219",7.4,18.9335781,72.8330494, Fort,"data:image/gif;base64,R0lGODlhAQABAIAAAAAAAP///yH5BAEAAAAALAAAAAABAAEAAAIBRAA7"
1678631166-137,https://www.trivago.in/en-IN/srl/hotels-mumbai-india?search=200-64981;dr-20230409-20230410;pa-4;rc-1-2,Ramee Guestline Hotel Khar,"5,985",6.8,19.0680177,72.8375292,Khar West,"data:image/gif;base64,R0lGODlhAQABAIAAAAAAAP///yH5BAEAAAAALAAAAAABAAEAAAIBRAA7"
1678631166-138,https://www.trivago.in/en-IN/srl/hotels-mumbai-india?search=200-64981;dr-20230409-20230410;pa-4;rc-1-2,"Four Points by Sheraton Navi Mumbai, Vashi","12,507",8.4,19.0660152,72.9992942,Vashi,"data:image/gif;base64,R0lGODlhAQABAIAAAAAAAP///yH5BAEAAAAALAAAAAABAAEAAAIBRAA7"
1678631166-139,https://www.trivago.in/en-IN/srl/hotels-mumbai-india?search=200-64981;dr-20230409-20230410;pa-4;rc-1-2,Meluha The Fern,"12,043",8.7,19.1179047,72.9107652,Powai,"data:image/gif;base64,R0lGODlhAQABAIAAAAAAAP///yH5BAEAAAAALAAAAAABAAEAAAIBRAA7"
1678631166-140,https://www.trivago.in/en-IN/srl/hotels-mumbai-india?search=200-64981;dr-20230409-20230410;pa-4;rc-1-2,Hotel Suba Galaxy,"7,560",7.6,19.114276,72.8517402,Andheri East,"data:image/gif;base64,R0lGODlhAQABAIAAAAAAAP///yH5BAEAAAAALAAAAAABAAEAAAIBRAA7"
1678631166-141,https://www.trivago.in/en-IN/srl/hotels-mumbai-india?search=200-64981;dr-20230409-20230410;pa-4;rc-1-2,ibis Mumbai Airport,"10,029",7.4,19.0966656,72.8534991,Vile Parle,"data:image/gif;base64,R0lGODlhAQABAIAAAAAAAP///yH5BAEAAAAALAAAAAABAAEAAAIBRAA7"
1678631166-142,https://www.trivago.in/en-IN/srl/hotels-mumbai-india?search=200-64981;dr-20230409-20230410;pa-4;rc-1-2,Hotel Wego,"7,055",8.1,19.1115423,72.8780347,Andheri East,"data:image/gif;base64,R0lGODlhAQABAIAAAAAAAP///yH5BAEAAAAALAAAAAABAAEAAAIBRAA7"
1678631166-143,https://www.trivago.in/en-IN/srl/hotels-mumbai-india?search=200-64981;dr-20230409-20230410;pa-4;rc-1-2,Majestic Court Sarovar Portico,"6,300",7.7,19.1146219,73.0172364,Mahape,"data:image/gif;base64,R0lGODlhAQABAIAAAAAAAP///yH5BAEAAAAALAAAAAABAAEAAAIBRAA7"
1678631166-144,https://www.trivago.in/en-IN/srl/hotels-mumbai-india?search=200-64981;dr-20230409-20230410;pa-4;rc-1-2,Abbott Hotel,"4,480",7.6,19.0736549,72.9970754,Vashi,"data:image/gif;base64,R0lGODlhAQABAIAAAAAAAP///yH5BAEAAAAALAAAAAABAAEAAAIBRAA7"
1678631166-145,https://www.trivago.in/en-IN/srl/hotels-mumbai-india?search=200-64981;dr-20230409-20230410;pa-4;rc-1-2,Treebo Trend Amber International,"3,999",9.1,19.1016987,72.8844742, Saki Naka,"data:image/gif;base64,R0lGODlhAQABAIAAAAAAAP///yH5BAEAAAAALAAAAAABAAEAAAIBRAA7"
1678631166-146,https://www.trivago.in/en-IN/srl/hotels-mumbai-india?search=200-64981;dr-20230409-20230410;pa-4;rc-1-2,Comfort Inn Heritage,"6,440",7.8,18.9759127,72.8340367, Byculla,"data:image/gif;base64,R0lGODlhAQABAIAAAAAAAP///yH5BAEAAAAALAAAAAABAAEAAAIBRAA7"
1678631166-147,https://www.trivago.in/en-IN/srl/hotels-mumbai-india?search=200-64981;dr-20230409-20230410;pa-4;rc-1-2,Ginger Mumbai Andheri,"6,719",7.8,19.1158729,72.8502897,Andheri East,"data:image/gif;base64,R0lGODlhAQABAIAAAAAAAP///yH5BAEAAAAALAAAAAABAAEAAAIBRAA7"
1678631166-148,https://www.trivago.in/en-IN/srl/hotels-mumbai-india?search=200-64981;dr-20230409-20230410;pa-4;rc-1-2,"Taj Santacruz, Mumbai","19,470",9,19.092607,72.8543433,Vile Parle,"data:image/gif;base64,R0lGODlhAQABAIAAAAAAAP///yH5BAEAAAAALAAAAAABAAEAAAIBRAA7"
1678631166-149,https://www.trivago.in/en-IN/srl/hotels-mumbai-india?search=200-64981;dr-20230409-20230410;pa-4;rc-1-2,InterContinental Marine Drive-Mumbai,"19,528",8.7,18.9350617,72.8244047,Marine Lines,"data:image/gif;base64,R0lGODlhAQABAIAAAAAAAP///yH5BAEAAAAALAAAAAABAAEAAAIBRAA7"
1678631166-150,https://www.trivago.in/en-IN/srl/hotels-mumbai-india?search=200-64981;dr-20230409-20230410;pa-4;rc-1-2,The UniContinental Hotel,"4,312",5.7,19.0706977,72.839785,Khar West,"data:image/gif;base64,R0lGODlhAQABAIAAAAAAAP///yH5BAEAAAAALAAAAAABAAEAAAIBRAA7"
1678631191-151,https://www.trivago.in/en-IN/srl/hotels-mumbai-india?search=200-64981;dr-20230409-20230410;pa-5;rc-1-2,"Country Inn & Suites by Radisson, Navi Mumbai","9,971",8,19.1138616,73.0126368,Mahape,"https://imgcy.trivago.com/c_lfill,d_dummy.jpeg,e_sharpen:60,f_auto,h_225,q_auto,w_225/itemimages/26/50/2650326.jpeg"
1678631191-152,https://www.trivago.in/en-IN/srl/hotels-mumbai-india?search=200-64981;dr-20230409-20230410;pa-5;rc-1-2,OYO 1052 Hotel Rudra Shelter International,"2,928",7.4,19.4109827,72.8780624,Vasai-Virar,"https://imgcy.trivago.com/c_lfill,d_dummy.jpeg,e_sharpen:60,f_auto,h_225,q_auto,w_225/itemimages/45/05/4505914_v1.jpeg"
1678631191-153,https://www.trivago.in/en-IN/srl/hotels-mumbai-india?search=200-64981;dr-20230409-20230410;pa-5;rc-1-2,Avirahi Hotel,"3,808",9.1,19.2033765,72.8511809,Kandivali West,"https://imgcy.trivago.com/c_lfill,d_dummy.jpeg,e_sharpen:60,f_auto,h_225,q_auto,w_225/itemimages/18/25/18253878.jpeg"
1678631191-154,https://www.trivago.in/en-IN/srl/hotels-mumbai-india?search=200-64981;dr-20230409-20230410;pa-5;rc-1-2,Hotel Chateau Windsor,"5,564",7.9,18.9335688,72.8251601, Churchgate,"https://imgcy.trivago.com/c_lfill,d_dummy.jpeg,e_sharpen:60,f_auto,h_225,q_auto,w_225/itemimages/61/40/614051_v2.jpeg"
1678631191-155,https://www.trivago.in/en-IN/srl/hotels-mumbai-india?search=200-64981;dr-20230409-20230410;pa-5;rc-1-2,Hotel Orritel West,"8,416",7.8,19.1394276,72.8341573,Andheri West,"data:image/gif;base64,R0lGODlhAQABAIAAAAAAAP///yH5BAEAAAAALAAAAAABAAEAAAIBRAA7"
1678631191-156,https://www.trivago.in/en-IN/srl/hotels-mumbai-india?search=200-64981;dr-20230409-20230410;pa-5;rc-1-2,The Roa,"3,467",7.1,19.0904218,72.9088998,Ghatkopar West,"data:image/gif;base64,R0lGODlhAQABAIAAAAAAAP///yH5BAEAAAAALAAAAAABAAEAAAIBRAA7"
1678631191-157,https://www.trivago.in/en-IN/srl/hotels-mumbai-india?search=200-64981;dr-20230409-20230410;pa-5;rc-1-2,OYO 1490 Hotel Landmark Fort,"6,418",7.5,18.9375993,72.8379049, Fort,"data:image/gif;base64,R0lGODlhAQABAIAAAAAAAP///yH5BAEAAAAALAAAAAABAAEAAAIBRAA7"
1678631191-159,https://www.trivago.in/en-IN/srl/hotels-mumbai-india?search=200-64981;dr-20230409-20230410;pa-5;rc-1-2,Hotel Suba Palace,"8,147",8.1,19.1325368,72.8670541,Jogeshwari East,"data:image/gif;base64,R0lGODlhAQABAIAAAAAAAP///yH5BAEAAAAALAAAAAABAAEAAAIBRAA7"
1678631191-160,https://www.trivago.in/en-IN/srl/hotels-mumbai-india?search=200-64981;dr-20230409-20230410;pa-5;rc-1-2,Hotel Harbour View,"7,840",7.8,18.9187915,72.8318232,Colaba,"data:image/gif;base64,R0lGODlhAQABAIAAAAAAAP///yH5BAEAAAAALAAAAAABAAEAAAIBRAA7"
1678631191-161,https://www.trivago.in/en-IN/srl/hotels-mumbai-india?search=200-64981;dr-20230409-20230410;pa-5;rc-1-2,Samraj Hotel,"4,664",7.1,19.1111411,72.8586751,Andheri East,"data:image/gif;base64,R0lGODlhAQABAIAAAAAAAP///yH5BAEAAAAALAAAAAABAAEAAAIBRAA7"
1678631191-162,https://www.trivago.in/en-IN/srl/hotels-mumbai-india?search=200-64981;dr-20230409-20230410;pa-5;rc-1-2,Hotel Golden Tulip Vasai And Spa,"4,032",7.3,19.4279327,72.8732987, Pelhar,"data:image/gif;base64,R0lGODlhAQABAIAAAAAAAP///yH5BAEAAAAALAAAAAABAAEAAAIBRAA7"
1678631191-163,https://www.trivago.in/en-IN/srl/hotels-mumbai-india?search=200-64981;dr-20230409-20230410;pa-5;rc-1-2,Guest Inn Residency Bandra Kurla Complex,"2,239",8.7,19.0543914,72.8680947,Kurla,"data:image/gif;base64,R0lGODlhAQABAIAAAAAAAP///yH5BAEAAAAALAAAAAABAAEAAAIBRAA7"
1678631191-164,https://www.trivago.in/en-IN/srl/hotels-mumbai-india?search=200-64981;dr-20230409-20230410;pa-5;rc-1-2,Radisson Mumbai Goregaon,"19,351",7.9,19.1733904,72.8458652,Goregaon,"data:image/gif;base64,R0lGODlhAQABAIAAAAAAAP///yH5BAEAAAAALAAAAAABAAEAAAIBRAA7"
1678631191-166,https://www.trivago.in/en-IN/srl/hotels-mumbai-india?search=200-64981;dr-20230409-20230410;pa-5;rc-1-2,Hotel Krishna Palace,"12,637",7.4,19.1885287,73.1913854,Ambernath,"data:image/gif;base64,R0lGODlhAQABAIAAAAAAAP///yH5BAEAAAAALAAAAAABAAEAAAIBRAA7"
1678631191-168,https://www.trivago.in/en-IN/srl/hotels-mumbai-india?search=200-64981;dr-20230409-20230410;pa-5;rc-1-2,Arma Residency,"1,680",7.5,19.1066071,72.8898773,Andheri East,"data:image/gif;base64,R0lGODlhAQABAIAAAAAAAP///yH5BAEAAAAALAAAAAABAAEAAAIBRAA7"
1678631191-169,https://www.trivago.in/en-IN/srl/hotels-mumbai-india?search=200-64981;dr-20230409-20230410;pa-5;rc-1-2,Carlton Mumbai,"2,589",7,18.9227004,72.8327867,Colaba,"data:image/gif;base64,R0lGODlhAQABAIAAAAAAAP///yH5BAEAAAAALAAAAAABAAEAAAIBRAA7"
1678631191-171,https://www.trivago.in/en-IN/srl/hotels-mumbai-india?search=200-64981;dr-20230409-20230410;pa-5;rc-1-2,Treebo Trend Arvind Residency,"3,053",9.1,19.1972331,72.9778164,Thane,"data:image/gif;base64,R0lGODlhAQABAIAAAAAAAP///yH5BAEAAAAALAAAAAABAAEAAAIBRAA7"
1678631191-172,https://www.trivago.in/en-IN/srl/hotels-mumbai-india?search=200-64981;dr-20230409-20230410;pa-5;rc-1-2,FabExpress Orange Suites Santacruz East,"2,877",8.8,19.0800856,72.8487036,Santacruz East,"data:image/gif;base64,R0lGODlhAQABAIAAAAAAAP///yH5BAEAAAAALAAAAAABAAEAAAIBRAA7"
1678631191-173,https://www.trivago.in/en-IN/srl/hotels-mumbai-india?search=200-64981;dr-20230409-20230410;pa-5;rc-1-2,FabHotel Adore Palace Mumbai International Airport,"1,682",9.2,19.0969688,72.8837444, Saki Naka,"data:image/gif;base64,R0lGODlhAQABAIAAAAAAAP///yH5BAEAAAAALAAAAAABAAEAAAIBRAA7"
1678631191-174,https://www.trivago.in/en-IN/srl/hotels-mumbai-india?search=200-64981;dr-20230409-20230410;pa-5;rc-1-2,Hotel Bawa International,"7,840",7.3,19.0963792,72.853629,Vile Parle,"data:image/gif;base64,R0lGODlhAQABAIAAAAAAAP///yH5BAEAAAAALAAAAAABAAEAAAIBRAA7"
1678631191-175,https://www.trivago.in/en-IN/srl/hotels-mumbai-india?search=200-64981;dr-20230409-20230410;pa-5;rc-1-2,Ripon Palace,"2,689",7,18.9676924,72.8253741,Mumbai Central,"data:image/gif;base64,R0lGODlhAQABAIAAAAAAAP///yH5BAEAAAAALAAAAAABAAEAAAIBRAA7"
1678630922-51,https://www.trivago.in/en-IN/srl/hotels-mumbai-india?search=200-64981;dr-20230409-20230410;rc-1-2,"ITC Maratha, a Luxury Collection Hotel, Mumbai","16,284",8.7,19.1039887,72.8697476,Andheri East,"https://imgcy.trivago.com/c_lfill,d_dummy.jpeg,e_sharpen:60,f_auto,h_225,q_auto,w_225/itemimages/99/50/99509_v2.jpeg"
1678630922-52,https://www.trivago.in/en-IN/srl/hotels-mumbai-india?search=200-64981;dr-20230409-20230410;rc-1-2,Hotel The Orchid,"14,749",7.8,19.0973152,72.8549583,Vile Parle,"https://imgcy.trivago.com/c_lfill,d_dummy.jpeg,e_sharpen:60,f_auto,h_225,q_auto,w_225/itemimages/99/51/99516_v5.jpeg"
1678630922-53,https://www.trivago.in/en-IN/srl/hotels-mumbai-india?search=200-64981;dr-20230409-20230410;rc-1-2,"President, Mumbai - IHCL SeleQtions","18,880",8.5,18.9147357,72.8207834,Cuffe Parade,"https://imgcy.trivago.com/c_lfill,d_dummy.jpeg,e_sharpen:60,f_auto,h_225,q_auto,w_225/itemimages/99/52/99528_v3.jpeg"
1678630922-54,https://www.trivago.in/en-IN/srl/hotels-mumbai-india?search=200-64981;dr-20230409-20230410;rc-1-2,Hilton Mumbai International Airport,"15,569",8.3,19.1044427,72.8707145,Andheri East,"https://imgcy.trivago.com/c_lfill,d_dummy.jpeg,e_sharpen:60,f_auto,h_225,q_auto,w_225/itemimages/17/76/1776841_v2.jpeg"
1678630922-55,https://www.trivago.in/en-IN/srl/hotels-mumbai-india?search=200-64981;dr-20230409-20230410;rc-1-2,The Leela Mumbai,"16,520",8.7,19.0759837,72.8776559,Cuffe Parade,"data:image/gif;base64,R0lGODlhAQABAIAAAAAAAP///yH5BAEAAAAALAAAAAABAAEAAAIBRAA7"
1678630922-57,https://www.trivago.in/en-IN/srl/hotels-mumbai-india?search=200-64981;dr-20230409-20230410;rc-1-2,Balwas,"2,800",7.7,18.9394876,72.8283881,Marine Lines,"data:image/gif;base64,R0lGODlhAQABAIAAAAAAAP///yH5BAEAAAAALAAAAAABAAEAAAIBRAA7"
1678630922-58,https://www.trivago.in/en-IN/srl/hotels-mumbai-india?search=200-64981;dr-20230409-20230410;rc-1-2,Flora Fountain,"2,847",7.2,18.9324727,72.8315176, Fort,"data:image/gif;base64,R0lGODlhAQABAIAAAAAAAP///yH5BAEAAAAALAAAAAABAAEAAAIBRAA7"
1678630922-60,https://www.trivago.in/en-IN/srl/hotels-mumbai-india?search=200-64981;dr-20230409-20230410;rc-1-2,The Westin Mumbai Powai Lake,"17,110",8.4,19.1343886,72.9014961,Powai,"data:image/gif;base64,R0lGODlhAQABAIAAAAAAAP///yH5BAEAAAAALAAAAAABAAEAAAIBRAA7"
1678630922-62,https://www.trivago.in/en-IN/srl/hotels-mumbai-india?search=200-64981;dr-20230409-20230410;rc-1-2,Club Emerald,"4,718",7.5,19.0565773,72.8911258,Chembur,"data:image/gif;base64,R0lGODlhAQABAIAAAAAAAP///yH5BAEAAAAALAAAAAABAAEAAAIBRAA7"
1678630922-63,https://www.trivago.in/en-IN/srl/hotels-mumbai-india?search=200-64981;dr-20230409-20230410;rc-1-2,Hotel Grace Galaxy,"3,331",7.4,19.0614829,72.8370616,Bandra West,"data:image/gif;base64,R0lGODlhAQABAIAAAAAAAP///yH5BAEAAAAALAAAAAABAAEAAAIBRAA7"
1678630922-64,https://www.trivago.in/en-IN/srl/hotels-mumbai-india?search=200-64981;dr-20230409-20230410;rc-1-2,Hotel Airlink,"7,728",7.5,19.0979529,72.8544407,Vile Parle,"data:image/gif;base64,R0lGODlhAQABAIAAAAAAAP///yH5BAEAAAAALAAAAAABAAEAAAIBRAA7"
1678630922-65,https://www.trivago.in/en-IN/srl/hotels-mumbai-india?search=200-64981;dr-20230409-20230410;rc-1-2,Hotel Residency Fort Mumbai,"5,354",8.2,18.9351141,72.8335101, Fort,"data:image/gif;base64,R0lGODlhAQABAIAAAAAAAP///yH5BAEAAAAALAAAAAABAAEAAAIBRAA7"
1678630922-66,https://www.trivago.in/en-IN/srl/hotels-mumbai-india?search=200-64981;dr-20230409-20230410;rc-1-2,"Taj Lands End, Mumbai","16,520",8.9,19.0437211,72.8192242,Bandra West,"data:image/gif;base64,R0lGODlhAQABAIAAAAAAAP///yH5BAEAAAAALAAAAAABAAEAAAIBRAA7"
1678630922-67,https://www.trivago.in/en-IN/srl/hotels-mumbai-india?search=200-64981;dr-20230409-20230410;rc-1-2,Hotel Kohinoor Elite,"13,806",8.3,19.0806968,72.885526,Kurla,"data:image/gif;base64,R0lGODlhAQABAIAAAAAAAP///yH5BAEAAAAALAAAAAABAAEAAAIBRAA7"
1678630922-68,https://www.trivago.in/en-IN/srl/hotels-mumbai-india?search=200-64981;dr-20230409-20230410;rc-1-2,JW Marriott Mumbai Juhu,"21,240",8.8,19.1018504,72.8262233,Juhu,"data:image/gif;base64,R0lGODlhAQABAIAAAAAAAP///yH5BAEAAAAALAAAAAABAAEAAAIBRAA7"
1678630922-69,https://www.trivago.in/en-IN/srl/hotels-mumbai-india?search=200-64981;dr-20230409-20230410;rc-1-2,Radisson Blu Mumbai International Airport,"16,520",7.8,19.1102222,72.8786221,Andheri East,"data:image/gif;base64,R0lGODlhAQABAIAAAAAAAP///yH5BAEAAAAALAAAAAABAAEAAAIBRAA7"
1678630922-70,https://www.trivago.in/en-IN/srl/hotels-mumbai-india?search=200-64981;dr-20230409-20230410;rc-1-2,The Lalit Mumbai,"13,737",8.3,19.1053238,72.8758792,Andheri East,"data:image/gif;base64,R0lGODlhAQABAIAAAAAAAP///yH5BAEAAAAALAAAAAABAAEAAAIBRAA7"
1678630922-71,https://www.trivago.in/en-IN/srl/hotels-mumbai-india?search=200-64981;dr-20230409-20230410;rc-1-2,The Grand Hyatt Mumbai,"16,815",8.9,19.0769686,72.8511099,Kurla,"data:image/gif;base64,R0lGODlhAQABAIAAAAAAAP///yH5BAEAAAAALAAAAAABAAEAAAIBRAA7"
1678630922-72,https://www.trivago.in/en-IN/srl/hotels-mumbai-india?search=200-64981;dr-20230409-20230410;rc-1-2,Manama Hotel,"2,564",6.5,18.9397246,72.8385778,Mazgaon,"data:image/gif;base64,R0lGODlhAQABAIAAAAAAAP///yH5BAEAAAAALAAAAAABAAEAAAIBRAA7"
1678630922-73,https://www.trivago.in/en-IN/srl/hotels-mumbai-india?search=200-64981;dr-20230409-20230410;rc-1-2,Jewel Of Chembur,"6,048",7.5,19.0617367,72.8996871,Chembur,"data:image/gif;base64,R0lGODlhAQABAIAAAAAAAP///yH5BAEAAAAALAAAAAABAAEAAAIBRAA7"
1678630922-74,https://www.trivago.in/en-IN/srl/hotels-mumbai-india?search=200-64981;dr-20230409-20230410;rc-1-2,Sofitel Mumbai BKC,"16,520",9,19.0674785,72.8690412,Kurla,"data:image/gif;base64,R0lGODlhAQABAIAAAAAAAP///yH5BAEAAAAALAAAAAABAAEAAAIBRAA7"
1678630922-75,https://www.trivago.in/en-IN/srl/hotels-mumbai-india?search=200-64981;dr-20230409-20230410;rc-1-2,Hotel The Oriental Residency,"4,913",7.9,19.0677632,72.8363534,Khar West,"data:image/gif;base64,R0lGODlhAQABAIAAAAAAAP///yH5BAEAAAAALAAAAAABAAEAAAIBRAA7"
,,,,,,,,
